$GPGGA,064601,5141.6203,S,05748.2121,W,2,12,0.70,9.10,M,,M*51
$IIVHW,,T,270.5,M,,N,,K*7B
$IIVTG,253.6,T,,M,0.1,N,0.2,K,D*1E
$IIMWV,19.10,R,5.70,N,A*06
$IIROT,-5.82,A*34
$IIMDA,99700.0,P,1.00,B,3.2,C,,C,,,,C,297.89,T,,M,5.79,N,2.98,M*01
$GPGGA,064602,5141.6203,S,05748.2122,W,2,12,0.70,9.10,M,,M*51
$IIMWV,24.30,R,5.99,N,A*0D
$IIROT,-5.82,A*34
$IIMDA,99700.0,P,1.00,B,3.2,C,,C,,,,C,300.09,T,,M,5.89,N,3.03,M*0A
$GPRMC,064603,A,5141.6204,S,05748.2122,W,0.10,253.59,151113,3.29,E,D*2D
$GPGLL,5141.6204,S,05748.2122,W,064603,A,D*46
$HCHDG,270.6,0.0,E,3.3,E*41
$IIMWD,300.09,T,,M,5.89,N,3.03,M*54
$GPGGA,064603,5141.6204,S,05748.2122,W,2,12,0.70,9.10,M,,M*57
$IIVHW,,T,270.6,M,,N,,K*78
$IIVTG,253.6,T,,M,0.1,N,0.2,K,D*1E
$IIMWV,24.30,R,5.89,N,A*0C
$IIROT,0.00,A*16
$IIMDA,99700.0,P,1.00,B,3.2,C,,C,,,,C,297.99,T,,M,5.70,N,2.93,M*02
$GPGGA,064604,5141.6205,S,05748.2121,W,2,12,0.70,9.10,M,,M*52
$IIMWV,22.10,R,5.79,N,A*07
$IIROT,-11.70,A*0C
$IIMDA,99700.0,P,1.00,B,3.2,C,,C,,,,C,295.19,T,,M,5.70,N,2.93,M*08
$GPRMC,064605,A,5141.6205,S,05748.2121,W,0.19,252.49,151113,3.29,E,D*20
$GPGLL,5141.6205,S,05748.2121,W,064605,A,D*42
$GPGSA,A,3,,,,,,,,,,,,,1.6,0.7,1.4*37
$GPGSV,3,1,12,01,34,243,37,03,27,338,42,06,13,358,34,11,54,253,39*75
$GPGSV,3,2,12,14,56,069,29,18,05,109,31,19,52,320,38,22,40,108,43*70
$GPGSV,3,3,12,24,10,147,30,27,23,354,40,28,13,230,38,32,34,294,39*7F
$HCHDG,270.6,0.0,E,3.3,E*41
$IIMWD,295.19,T,,M,5.70,N,2.93,M*56
$GPGGA,064605,5141.6205,S,05748.2121,W,2,12,0.70,9.10,M,,M*53
$IIVHW,,T,270.6,M,,N,,K*78
$IIVTG,252.5,T,,M,0.2,N,0.4,K,D*19
$IIMWV,20.20,R,5.89,N,A*09
$IIROT,0.00,A*16
$IIMDA,99700.0,P,1.00,B,3.2,C,,C,,,,C,292.79,T,,M,5.60,N,2.88,M*02
$GPGGA,064606,5141.6205,S,05748.2121,W,2,12,0.70,9.10,M,,M*50
$IIMWV,17.19,R,5.70,N,A*01
$IIROT,5.82,A*19
$IIMDA,99700.0,P,1.00,B,3.2,C,,C,,,,C,289.69,T,,M,5.79,N,2.98,M*00
$GPRMC,064607,A,5141.6204,S,05748.2122,W,0.00,251.99,151113,3.29,E,D*26
$GPGLL,5141.6204,S,05748.2122,W,064607,A,D*42
$HCHDG,270.7,0.0,E,3.3,E*40
$IIMWD,289.69,T,,M,5.79,N,2.98,M*5E
$GPGGA,064607,5141.6204,S,05748.2122,W,2,12,0.70,9.10,M,,M*53
$IIVHW,,T,270.7,M,,N,,K*79
$IIVTG,252.0,T,,M,0.0,N,0.0,K,D*1A
$IIMWV,14.80,R,5.89,N,A*04
$IIROT,0.00,A*16
$IIMDA,99700.0,P,1.00,B,3.2,C,,C,,,,C,288.79,T,,M,5.89,N,3.03,M*0C
$GPGGA,064608,5141.6204,S,05748.2121,W,2,12,0.70,9.10,M,,M*5F
$IIMWV,15.10,R,5.99,N,A*0D
$IIROT,-17.52,A*0A
$IIMDA,99700.0,P,1.00,B,3.2,C,,C,,,,C,291.69,T,,M,5.99,N,3.08,M*0F
$GPRMC,064609,A,5141.6204,S,05748.2120,W,0.00,251.29,151113,3.29,E,D*21
$GPGLL,5141.6204,S,05748.2120,W,064609,A,D*4E
$GPGSA,A,3,,,,,,,,,,,,,1.6,0.7,1.4*37
$GPGSV,3,1,12,01,34,243,37,03,27,338,42,06,13,358,33,11,54,253,39*72
$GPGSV,3,2,12,14,56,069,30,18,05,109,31,19,52,320,37,22,40,108,43*77
$GPGSV,3,3,12,24,10,147,31,27,23,354,40,28,13,230,38,32,34,294,39*7E
$IIMWD,291.69,T,,M,5.99,N,3.08,M*51
$HCHDG,270.8,0.0,E,3.3,E*4F
$GPGGA,064609,5141.6204,S,05748.2120,W,2,12,0.70,9.10,M,,M*5F
$IIVHW,,T,270.8,M,,N,,K*76
$IIVTG,251.3,T,,M,0.0,N,0.0,K,D*1A
$IIMWV,17.30,R,5.89,N,A*0C
$IIROT,0.00,A*16
$IIMDA,99700.0,P,1.00,B,3.2,C,,C,,,,C,293.09,T,,M,5.70,N,2.93,M*0F
$GPGGA,064610,5141.6203,S,05748.2120,W,2,12,0.70,9.10,M,,M*50
$IIMWV,18.70,R,5.79,N,A*08
$IIROT,-5.82,A*34
$IIMDA,99700.0,P,1.00,B,3.2,C,,C,,,,C,296.69,T,,M,5.70,N,2.93,M*0C
$GPRMC,064611,A,5141.6203,S,05748.2119,W,0.10,253.29,151113,3.29,E,D*26
$GPGLL,5141.6203,S,05748.2119,W,064611,A,D*4A
$IIMWD,296.69,T,,M,5.70,N,2.93,M*52
$HCHDG,270.8,0.0,E,3.3,E*4F
$GPGGA,064611,5141.6203,S,05748.2119,W,2,12,0.70,9.10,M,,M*5B
$IIVHW,,T,270.8,M,,N,,K*76
$IIVTG,253.3,T,,M,0.1,N,0.2,K,D*1B
$IIMWV,21.39,R,5.79,N,A*0F
$IIROT,-17.52,A*0A
$IIMDA,99700.0,P,1.00,B,3.2,C,,C,,,,C,298.49,T,,M,5.79,N,2.98,M*02
$GPGGA,064612,5141.6203,S,05748.2119,W,2,12,0.70,9.20,M,,M*5B
$IIMWV,24.10,R,5.89,N,A*0E
$IIROT,-5.82,A*34
$IIMDA,99700.0,P,1.00,B,3.2,C,,C,,,,C,301.09,T,,M,5.60,N,2.88,M*0E
$GPRMC,064613,A,5141.6203,S,05748.2119,W,0.10,253.29,151113,3.29,E,D*24
$GPGLL,5141.6203,S,05748.2119,W,064613,A,D*48
$GPGSA,A,3,,,,,,,,,,,,,1.6,0.7,1.4*37
$GPGSV,3,1,12,01,34,243,37,03,27,338,42,06,13,358,33,11,54,253,40*7C
$GPGSV,3,2,12,14,56,069,29,18,05,109,30,19,52,320,36,22,40,108,43*7F
$GPGSV,3,3,12,24,10,147,31,27,23,354,40,28,13,230,38,32,34,294,39*7E
$IIMWD,301.09,T,,M,5.60,N,2.88,M*50
$HCHDG,270.8,0.0,E,3.3,E*4F
$GPGGA,064613,5141.6203,S,05748.2119,W,2,12,0.70,9.20,M,,M*5A
$IIVHW,,T,270.8,M,,N,,K*76
$IIVTG,253.3,T,,M,0.1,N,0.2,K,D*1B
$IIMWV,26.50,R,5.70,N,A*0E
$IIROT,-11.70,A*0C
$IIMDA,99700.0,P,1.00,B,3.2,C,,C,,,,C,302.49,T,,M,5.60,N,2.88,M*09
$GPGGA,064614,5141.6203,S,05748.2119,W,2,12,0.70,9.20,M,,M*5D
$IIMWV,29.60,R,5.70,N,A*02
$IIROT,-11.70,A*0C
$IIMDA,99700.0,P,1.00,B,3.2,C,,C,,,,C,304.19,T,,M,5.60,N,2.88,M*0A
$GPRMC,064615,A,5141.6203,S,05748.2119,W,0.10,253.29,151113,3.29,E,D*22
$GPGLL,5141.6203,S,05748.2119,W,064615,A,D*4E
$IIMWD,304.19,T,,M,5.60,N,2.88,M*54
$HCHDG,270.8,0.0,E,3.3,E*4F
$GPGGA,064615,5141.6203,S,05748.2119,W,2,12,0.70,9.30,M,,M*5D
$IIVHW,,T,270.8,M,,N,,K*76
$IIVTG,253.3,T,,M,0.1,N,0.2,K,D*1B
$IIMWV,27.30,R,5.70,N,A*09
$IIROT,-11.70,A*0C
$IIMDA,99700.0,P,1.00,B,3.2,C,,C,,,,C,301.39,T,,M,5.38,N,2.77,M*00
$GPGGA,064616,5141.6204,S,05748.2118,W,2,12,0.70,9.30,M,,M*58
$IIMWV,25.20,R,5.38,N,A*06
$IIROT,-11.70,A*0C
$IIMDA,99700.0,P,1.00,B,3.2,C,,C,,,,C,301.99,T,,M,5.38,N,2.77,M*0A
$GPRMC,064617,A,5141.6204,S,05748.2118,W,0.19,252.29,151113,3.29,E,D*2E
$GPGLL,5141.6204,S,05748.2118,W,064617,A,D*4A
$GPGSA,A,3,,,,,,,,,,,,,1.6,0.7,1.4*37
$GPGSV,3,1,12,01,34,243,38,03,27,338,43,06,13,358,33,11,54,253,39*7C
$GPGSV,3,2,12,14,56,069,30,18,05,109,31,19,52,320,36,22,40,108,44*71
$GPGSV,3,3,12,24,10,147,32,27,23,354,40,28,13,230,38,32,34,294,39*7D
$IIMWD,301.99,T,,M,5.38,N,2.77,M*54
$HCHDG,270.8,0.0,E,3.3,E*4F
$GPGGA,064617,5141.6204,S,05748.2118,W,2,12,0.70,9.40,M,,M*5E
$IIVHW,,T,270.8,M,,N,,K*76
$IIVTG,252.3,T,,M,0.2,N,0.4,K,D*1F
$IIMWV,25.70,R,5.70,N,A*0F
$IIROT,-17.52,A*0A
$IIMDA,99700.0,P,1.00,B,3.2,C,,C,,,,C,297.89,T,,M,5.89,N,3.03,M*0D
$GPGGA,064618,5141.6204,S,05748.2117,W,2,11,0.70,9.50,M,,M*5C
$IIMWV,24.10,R,6.08,N,A*04
$IIROT,-17.52,A*0A
$IIMDA,99700.0,P,1.00,B,3.2,C,,C,,,,C,297.69,T,,M,5.89,N,3.03,M*03
$GPRMC,064619,A,5141.6204,S,05748.2116,W,0.10,251.29,151113,3.29,E,D*24
$GPGLL,5141.6204,S,05748.2116,W,064619,A,D*4A
$IIMWD,297.69,T,,M,5.89,N,3.03,M*5D
$HCHDG,270.8,0.0,E,3.3,E*4F
$GPGGA,064619,5141.6204,S,05748.2116,W,2,11,0.70,9.50,M,,M*5C
$IIVHW,,T,270.8,M,,N,,K*76
$IIVTG,251.3,T,,M,0.1,N,0.2,K,D*19
$IIMWV,22.90,R,5.99,N,A*01
$IIROT,-17.52,A*0A
$IIMDA,99700.0,P,1.00,B,3.2,C,,C,,,,C,298.19,T,,M,5.89,N,3.03,M*0B
$GPGGA,064620,5141.6204,S,05748.2115,W,2,11,0.70,9.60,M,,M*56
$IIMWV,23.90,R,5.99,N,A*00
$IIROT,0.00,A*16
$IIMDA,99700.0,P,1.00,B,3.2,C,,C,,,,C,297.79,T,,M,5.99,N,3.08,M*08
$GPRMC,064621,A,5141.6204,S,05748.2114,W,0.00,250.39,151113,3.29,E,D*2C
$GPGLL,5141.6204,S,05748.2114,W,064621,A,D*43
$GPGSA,A,3,,,,,,,,,,,,,1.6,0.7,1.4*37
$GPGSV,3,1,11,01,35,243,37,03,27,338,43,06,13,359,33,11,55,254,39*76
$GPGSV,3,2,11,14,56,070,27,19,51,321,36,22,40,108,44,24,10,147,31*7F
$GPGSV,3,3,11,27,23,354,40,28,13,230,38,32,34,294,39*4A
$IIMWD,297.79,T,,M,5.99,N,3.08,M*56
$HCHDG,270.8,0.0,E,3.3,E*4F
$GPGGA,064621,5141.6204,S,05748.2114,W,2,11,0.70,9.70,M,,M*57
$IIVHW,,T,270.8,M,,N,,K*76
$IIVTG,250.4,T,,M,0.0,N,0.0,K,D*1C
$IIMWV,23.90,R,5.99,N,A*00
$IIROT,-11.70,A*0C
$IIMDA,99700.0,P,1.00,B,3.2,C,,C,,,,C,297.29,T,,M,5.79,N,2.98,M*0B
$GPGGA,064622,5141.6204,S,05748.2114,W,2,11,0.80,9.80,M,,M*54
$IIMWV,22.40,R,5.89,N,A*0D
$IIROT,0.00,A*16
$IIMDA,99700.0,P,1.00,B,3.2,C,,C,,,,C,299.19,T,,M,5.79,N,2.98,M*06
$GPRMC,064623,A,5141.6204,S,05748.2113,W,0.10,252.89,151113,3.29,E,D*21
$GPGLL,5141.6204,S,05748.2113,W,064623,A,D*46
$IIMWD,299.19,T,,M,5.79,N,2.98,M*58
$HCHDG,270.8,0.0,E,3.3,E*4F
$GPGGA,064623,5141.6204,S,05748.2113,W,2,11,0.80,9.80,M,,M*52
$IIVHW,,T,270.8,M,,N,,K*76
$IIVTG,252.9,T,,M,0.1,N,0.2,K,D*10
$IIROT,-11.70,A*0C
$IIMDA,99700.0,P,1.00,B,3.2,C,,C,,,,C,299.09,T,,M,5.48,N,2.82,M*0E
$GPGGA,064624,5141.6204,S,05748.2114,W,2,11,0.70,9.90,M,,M*5C
$IIMWV,25.00,R,5.60,N,A*09
$IIROT,0.00,A*16
$IIMDA,99700.0,P,1.00,B,3.2,C,,C,,,,C,296.69,T,,M,5.19,N,2.67,M*08
$GPRMC,064625,A,5141.6204,S,05748.2114,W,0.10,253.29,151113,3.29,E,D*2B
$GPGLL,5141.6204,S,05748.2114,W,064625,A,D*47
$GPGSA,A,3,,,,,,,,,,,,,1.7,0.8,1.5*38
$GPGSV,3,1,11,01,35,243,37,03,27,338,43,06,13,359,34,11,55,254,39*71
$GPGSV,3,2,11,14,56,070,32,19,51,321,36,22,40,108,44,24,10,147,31*7B
$GPGSV,3,3,11,27,23,354,39,28,13,230,38,32,34,294,39*44
$IIMWD,296.69,T,,M,5.19,N,2.67,M*56
$HCHDG,270.8,0.0,E,3.3,E*4F
$GPGGA,064625,5141.6204,S,05748.2114,W,2,11,0.80,9.90,M,,M*52
$IIVHW,,T,270.8,M,,N,,K*76
$IIVTG,253.3,T,,M,0.1,N,0.2,K,D*1B
$IIMWV,20.90,R,5.09,N,A*0A
$IIROT,0.00,A*16
$IIMDA,99700.0,P,1.00,B,3.2,C,,C,,,,C,293.69,T,,M,5.00,N,2.57,M*06
$GPGGA,064626,5141.6204,S,05748.2115,W,2,11,0.80,10.00,M,,M*61
$IIMWV,19.30,R,5.19,N,A*0B
$IIROT,-5.82,A*34
$IIMDA,99700.0,P,1.00,B,3.2,C,,C,,,,C,295.19,T,,M,5.09,N,2.62,M*08
$GPRMC,064627,A,5141.6204,S,05748.2115,W,0.10,253.59,151113,3.29,E,D*2F
$GPGLL,5141.6204,S,05748.2115,W,064627,A,D*44
$IIMWD,295.19,T,,M,5.09,N,2.62,M*56
$HCHDG,270.7,0.0,E,3.3,E*40
$GPGGA,064627,5141.6204,S,05748.2115,W,2,11,0.80,10.10,M,,M*61
$IIVHW,,T,270.7,M,,N,,K*79
